[
  {
    "platform_station_id": "e1139f6d-e34f-47a9-a55f-31f032a861a6",
    "name": "Пункт выдачи заказов партнёра",
    "address": "Москва Ленинградский проспект 27",
    "lat": 55.784088134765625,
    "lon": 37.56659698486328
  },
  {
    "platform_station_id": "019bd67517b870d9a687d9086aac278c",
    "name": "Пункт выдачи заказов Яндекс Маркета",
    "address": "Москва 1-й Красногвардейский проезд 22 стр1",
    "lat": 55.751885,
    "lon": 37.533962
  },
  {
    "platform_station_id": "912f682b-1b4f-45f2-b09f-8570abbcd8a8",
    "name": "Пункт выдачи заказов Яндекс Маркета",
    "address": "Москва 5-я Парковая улица 26",
    "lat": 55.79366683959961,
    "lon": 37.7888298034668
  },
  {
    "platform_station_id": "eefb2ae4-c209-413c-98a3-12bc6572f1d5",
    "name": "Пункт выдачи заказов Яндекс Маркета",
    "address": "Москва улица Строителей 4 стр3",
    "lat": 55.6883544921875,
    "lon": 37.53367614746094
  },
  {
    "platform_station_id": "0198a4262e0b7342a0bc65aed5ed43ea",
    "name": "Пункт выдачи заказов Яндекс Маркета",
    "address": "Москва 2-я Филёвская улица 7 к1",
    "lat": 55.737196,
    "lon": 37.491624
  },
  {
    "platform_station_id": "019373a0ecd97151922149c5094feaf6",
    "name": "ГиперПВЗ-2",
    "address": "Москва Новокосинская 17 к6",
    "lat": 55.740522,
    "lon": 37.855554
  },
  {
    "platform_station_id": "6fd48c50-b666-4756-aece-6c11cc34f58b",
    "name": "Пункт выдачи заказов партнёра",
    "address": "Москва улица Лобанова ",
    "lat": 55.7005500793457,
    "lon": 37.65959548950195
  },
  {
    "platform_station_id": "0193e326ab5277898b99892226af60c3",
    "name": "Пункт выдачи заказов партнёра",
    "address": "Москва Смоленский бульвар 15",
    "lat": 55.741547,
    "lon": 37.581639
  },
  {
    "platform_station_id": "bc5e39e5-87c7-4374-9a5f-e57aaacafd9c",
    "name": "Пункт выдачи заказов Яндекс Маркета",
    "address": "Москва улица Льва Толстого 16",
    "lat": 55.73420333862305,
    "lon": 37.58806228637695
  },
  {
    "platform_station_id": "01957ee8eb8c72d79260f7e85c778f1e",
    "name": "Пункт выдачи заказов Яндекс Маркета",
    "address": "Москва Садовая-Спасская улица ",
    "lat": 55.770447,
    "lon": 37.643362
  },
  {
    "platform_station_id": "eb4999ee-1125-4c83-b5e2-85b78f91d8a1",
    "name": "Пункт выдачи заказов Яндекс Маркета",
    "address": "Московский  3",
    "lat": 55.60450744628906,
    "lon": 37.35060119628906
  },
  {
    "platform_station_id": "8ca99ffa-acec-4959-9b01-e002c5d15172",
    "name": "Пункт выдачи заказов партнёра",
    "address": "Москва Малая Переяславская улица 10",
    "lat": 55.789737701416016,
    "lon": 37.638553619384766
  },
  {
    "platform_station_id": "0197a622527174f1ac0543695d945438",
    "name": "Пункт выдачи заказов Яндекс Маркета",
    "address": "Москва Марксистская улица 24 стр2",
    "lat": 55.736443,
    "lon": 37.662057
  },
  {
    "platform_station_id": "6673e0cc-6d16-4e05-b614-0fdc016b4209",
    "name": "Пункт выдачи заказов Яндекс Маркета",
    "address": "Москва Новая улица 22",
    "lat": 55.87742614746094,
    "lon": 37.51532745361328
  },
  {
    "platform_station_id": "01985fe2d7ed768da5078a5bafcbddfd",
    "name": "Пункт выдачи заказов Яндекс Маркета",
    "address": "Москва улица Юлиуса Фучика ",
    "lat": 55.770382,
    "lon": 37.58845
  },
  {
    "platform_station_id": "019905b88eea75c384931226d370959b",
    "name": "Пункт выдачи заказов Яндекс Маркета",
    "address": "Москва МКАД, 31-й километр 12 стр1",
    "lat": 55.576583,
    "lon": 37.614774
  },
  {
    "platform_station_id": "01951a398cee74a7931fc9a0b58e6c6d",
    "name": "Пункт выдачи заказов Яндекс Маркета",
    "address": "Москва  ",
    "lat": 55.75,
    "lon": 37.62
  },
  {
    "platform_station_id": "019bebbda7a574e1965cfd7d7818d2fa",
    "name": "Пункт выдачи заказов Яндекс Маркета",
    "address": "Москва Тестовская улица 10",
    "lat": 55.75121,
    "lon": 37.533118
  },
  {
    "platform_station_id": "0197a6224f1a751487e8a0781fbda8f3",
    "name": "Пункт выдачи заказов партнёра",
    "address": "Москва Голиковский переулок 5",
    "lat": 55.740269,
    "lon": 37.62751
  },
  {
    "platform_station_id": "a6f6c4f1-a590-4cd3-a627-326220a984da",
    "name": "Пункт выдачи заказов Яндекс Маркета",
    "address": "Москва улица Строителей 8 к1",
    "lat": 55.68869400024414,
    "lon": 37.53300476074219
  },
  {
    "platform_station_id": "019373a1033f75f99aef732a4a9b1b6e",
    "name": "Пункт выдачи заказов Яндекс Маркета",
    "address": "Москва улица Крупской 11 к1 стр1",
    "lat": 55.68321,
    "lon": 37.527383
  },
  {
    "platform_station_id": "0193f79931a07270a25c6e7dcd33edca",
    "name": "Пункт выдачи заказов Яндекс Маркета",
    "address": "Москва улица Крупской 15 к1 стр1",
    "lat": 55.683888,
    "lon": 37.526133
  },
  {
    "platform_station_id": "0195701d80d17413b252552fbab5156c",
    "name": "Пункт выдачи заказов Яндекс Маркета",
    "address": "Москва Моховая улица 15/1 стр1",
    "lat": 55.756812,
    "lon": 37.614091
  },
  {
    "platform_station_id": "cab94c78-db13-4fc0-bfb0-5034dde651df",
    "name": "Пункт выдачи заказов Яндекс Маркета",
    "address": "Москва Тверская улица 15",
    "lat": 55.76222610473633,
    "lon": 37.60818862915039
  },
  {
    "platform_station_id": "019abbc7875c7783b7ed202d7845c774",
    "name": "Пункт выдачи заказов Яндекс Маркета",
    "address": "Москва Кунцевская улица 10",
    "lat": 55.731607,
    "lon": 37.412904
  },
  {
    "platform_station_id": "019b55c13062753f9fdf990229780194",
    "name": "Пункт выдачи заказов Яндекс Маркета",
    "address": "Москва Мантулинская улица 2",
    "lat": 55.756728,
    "lon": 37.557258
  },
  {
    "platform_station_id": "af9d2d06-5934-4973-980a-d6def76879f3",
    "name": "Пункт выдачи заказов Яндекс Маркета",
    "address": "Москва Большой Знаменский переулок 17",
    "lat": 55.747676849365234,
    "lon": 37.6019287109375
  },
  {
    "platform_station_id": "019b6a0812a173e9b4a895e06f244e17",
    "name": "Пункт выдачи заказов Яндекс Маркета",
    "address": "Москва улица Остоженка 38 стр1",
    "lat": 55.738895,
    "lon": 37.593714
  },
  {
    "platform_station_id": "1755e076-a372-4b78-ab83-c91ec10b50dc",
    "name": "Пункт выдачи заказов Яндекс.Маркета",
    "address": "Москва Костянский переулок 13",
    "lat": 55.76906204223633,
    "lon": 37.63506317138672
  },
  {
    "platform_station_id": "47848a7a-3548-45ff-bec2-8ba5b9ad73a9",
    "name": "Пункт выдачи заказов Яндекс.Маркета",
    "address": "Москва Кутузовский проспект 3 стр2",
    "lat": 55.75,
    "lon": 37.56999969482422
  },
  {
    "platform_station_id": "019b6a0812a07030b4291c1d2c29a795",
    "name": "Пункт выдачи заказов Яндекс Маркета",
    "address": "Москва улица Ильинка 3/8 стр1",
    "lat": 55.754744,
    "lon": 37.623176
  },
  {
    "platform_station_id": "65ead1a9-b0a6-4035-8425-a9606547aa0f",
    "name": "ПВЗ Беру",
    "address": "Москва Коломенский проезд 14 к1 стр2",
    "lat": 55.665016174316406,
    "lon": 37.6509895324707
  },
  {
    "platform_station_id": "fb147365-18a2-4668-b5c5-84ad5a6fba20",
    "name": "Пункт выдачи заказов Яндекс Маркета",
    "address": "Московский улица Бианки 7",
    "lat": 55.60359191894531,
    "lon": 37.363670349121094
  },
  {
    "platform_station_id": "0197cb067bd877cb8b083959d1a4c035",
    "name": "Пункт выдачи заказов Яндекс Маркета",
    "address": "Москва Большой Палашёвский переулок 14/7",
    "lat": 55.764581,
    "lon": 37.600714
  },
  {
    "platform_station_id": "019abba4779f751087b8115d79044085",
    "name": "Пункт выдачи заказов Яндекс Маркета",
    "address": "Москва Кунцевская улица 10",
    "lat": 55.7316,
    "lon": 37.41332
  },
  {
    "platform_station_id": "63734acb-9581-4bde-af05-616fb6b874b5",
    "name": "Пункт выдачи заказов Яндекс Маркета",
    "address": "Москва улица Остоженка 48",
    "lat": 55.73646926879883,
    "lon": 37.59395217895508
  },
  {
    "platform_station_id": "e9aa0dc4-9628-418f-8f1a-b0c01a1f4814",
    "name": "Пункт выдачи заказов Яндекс Маркета",
    "address": "Москва Большая Татарская улица 7 к1",
    "lat": 55.74225234985352,
    "lon": 37.6348876953125
  },
  {
    "platform_station_id": "3c1e38c4-818b-45d3-ad8d-0f4da13e792d",
    "name": "Пункт выдачи заказов Яндекс Маркета",
    "address": "Москва Садовая-Самотёчная улица 11",
    "lat": 55.7740592956543,
    "lon": 37.61701202392578
  },
  {
    "platform_station_id": "58bdd1b5-632e-4ccc-8dfb-bc4c3e0f035f",
    "name": "Пункт выдачи заказов Яндекс Маркета",
    "address": "Москва Ангарская улица 27",
    "lat": 55.877723693847656,
    "lon": 37.519100189208984
  },
  {
    "platform_station_id": "6e6208fc-4646-4ded-a760-bc34341a5b8d",
    "name": "Пункт выдачи заказов Яндекс Маркета",
    "address": "Москва Ангарская улица 21",
    "lat": 55.8768310546875,
    "lon": 37.516719818115234
  },
  {
    "platform_station_id": "59158cf6-62e7-4082-8477-79f6bbc249e8",
    "name": "Пункт выдачи заказов Яндекс Маркета",
    "address": "Москва Кутузовский проспект 3 стр2",
    "lat": 55.75,
    "lon": 37.56999969482422
  },
  {
    "platform_station_id": "0193da59d555709cad588a48429a6c25",
    "name": "Пункт выдачи заказов Яндекс Маркета",
    "address": "Москва Мичуринский проспект 13 к3",
    "lat": 55.697147,
    "lon": 37.512601
  },
  {
    "platform_station_id": "0193da59d403725e8f2d29135f9ad4cb",
    "name": "Пункт выдачи заказов Яндекс Маркета",
    "address": "Москва Мичуринский проспект 13 к3",
    "lat": 55.697152,
    "lon": 37.512635
  },
  {
    "platform_station_id": "0193da59d5267244a8a63bf4dcfa4c7c",
    "name": "Пункт выдачи заказов Яндекс Маркета",
    "address": "Москва Мичуринский проспект 13 к3",
    "lat": 55.697245,
    "lon": 37.512519
  },
  {
    "platform_station_id": "0193da59d46b735f99aa34773badeb49",
    "name": "Пункт выдачи заказов Яндекс Маркета",
    "address": "Москва Мичуринский проспект 13 к3",
    "lat": 55.697266,
    "lon": 37.51263
  },
  {
    "platform_station_id": "f865a2b5-61b8-4294-8a08-047e7a791c97",
    "name": "Пункт выдачи заказов Яндекс Маркета",
    "address": "Москва улица Плющиха 42",
    "lat": 55.74173355102539,
    "lon": 37.57655334472656
  },
  {
    "platform_station_id": "0195701d80ab7599bff991cbb8c1edf6",
    "name": "Пункт выдачи заказов Яндекс Маркета",
    "address": "Москва  ",
    "lat": 55.75,
    "lon": 37.62
  },
  {
    "platform_station_id": "0199ce372acd760aac33f2732ecfbedf",
    "name": "Пункт выдачи заказов Яндекс Маркета",
    "address": "Москва Малый Николопесковский переулок 4",
    "lat": 55.750387,
    "lon": 37.592878
  },
  {
    "platform_station_id": "6d93897c-9e8b-4284-8eef-32cd23a94b16",
    "name": "Пункт выдачи заказов Яндекс Маркета",
    "address": "Москва улица Лестева 24",
    "lat": 55.71521759033203,
    "lon": 37.60945129394531
  },
  {
    "platform_station_id": "4e4dc528-9095-428d-b9f1-2bf053c9148e",
    "name": "Пункт выдачи заказов Яндекс Маркета",
    "address": "Москва Большая Грузинская улица 10",
    "lat": 55.76374435424805,
    "lon": 37.580299377441406
  },
  {
    "platform_station_id": "5ec1be2e-bb85-4eaa-bca2-0fa51135123b",
    "name": "Пункт выдачи заказов Яндекс Маркета",
    "address": "Москва улица Покровка 27 стр1",
    "lat": 55.760841369628906,
    "lon": 37.64827728271485
  },
  {
    "platform_station_id": "ccd81ba4-8f28-48be-a4ed-b9f718e9c4f2",
    "name": "Пункт выдачи заказов партнёра",
    "address": "Москва Кутузовский проспект 36 к4 стр10",
    "lat": 55.74185562133789,
    "lon": 37.52542495727539
  },
  {
    "platform_station_id": "01946ff3639e767286e9eaacf19dd17c",
    "name": "Пункт выдачи заказов Яндекс Маркета",
    "address": "Москва Старопименовский переулок 8",
    "lat": 55.768972,
    "lon": 37.601804
  },
  {
    "platform_station_id": "03840f16-3c53-400c-b382-1ecf30e06b64",
    "name": "Пункт выдачи заказов Яндекс Маркета",
    "address": "Москва Смоленская набережная 8 стр2",
    "lat": 55.75029754638672,
    "lon": 37.576026916503906
  },
  {
    "platform_station_id": "474dd992-bfc7-4a54-96ff-1e46d4aa1390",
    "name": "Пункт выдачи заказов Яндекс Маркета",
    "address": "Москва Енисейская улица вл37",
    "lat": 55.87616729736328,
    "lon": 37.6667594909668
  },
  {
    "platform_station_id": "0193b0244e6d7510a9f988b33d6107ba",
    "name": "Пункт выдачи заказов Яндекс Маркета",
    "address": "Москва Моховая улица 15/1 стр1",
    "lat": 55.756812,
    "lon": 37.614091
  },
  {
    "platform_station_id": "1b9cda33-1ae7-4786-bba6-b531fa46e34f",
    "name": "Пункт выдачи заказов Яндекс Маркета",
    "address": "Москва Новая площадь 3/4",
    "lat": 55.75697326660156,
    "lon": 37.63017272949219
  },
  {
    "platform_station_id": "019bb9ee4d4d744e8e9447cf70e38779",
    "name": "Пункт выдачи заказов Яндекс Маркета",
    "address": "Москва 2-я Фрунзенская улица 10 к2",
    "lat": 55.724383,
    "lon": 37.581505
  },
  {
    "platform_station_id": "0193da59d49174f384466d2d99e435b3",
    "name": "Пункт выдачи заказов Яндекс Маркета",
    "address": "Москва улица Крупской 19/17 к3 стр3",
    "lat": 55.684471,
    "lon": 37.525035
  },
  {
    "platform_station_id": "019c09ecbe57777caadddd809b673eca",
    "name": "Пункт выдачи заказов Яндекс Маркета",
    "address": "Москва Шелепихинская набережная 34 к1",
    "lat": 55.761374,
    "lon": 37.514235
  },
  {
    "platform_station_id": "019373a0e7dd7655978af311fcd4db51",
    "name": "Пункт выдачи заказов Яндекс Маркета",
    "address": "Москва улица Крупской 11 к1 стр1",
    "lat": 55.683236,
    "lon": 37.527265
  },
  {
    "platform_station_id": "019bc7a700157763bda6f14d4db90815",
    "name": "Пункт выдачи заказов Яндекс Маркета",
    "address": "Москва набережная Академика Туполева 15",
    "lat": 55.760891,
    "lon": 37.681026
  },
  {
    "platform_station_id": "019bc7a7001970ce874d8533085bb7a6",
    "name": "Пункт выдачи заказов Яндекс Маркета",
    "address": "Москва Старопанский переулок 3 стр1",
    "lat": 55.756058,
    "lon": 37.624178
  },
  {
    "platform_station_id": "01946ff363be761ea5e356d2ba1f89b9",
    "name": "Пункт выдачи заказов партнёра",
    "address": "Москва Проточный переулок 2/1",
    "lat": 55.750484,
    "lon": 37.582234
  },
  {
    "platform_station_id": "019c0f7e685874238d3857022eb9b255",
    "name": "Пункт выдачи заказов партнёра",
    "address": "Москва улица Красный Казанец 5",
    "lat": 55.720786,
    "lon": 37.80842
  },
  {
    "platform_station_id": "01985b6d65da775c9b63954903e17b16",
    "name": "Пункт выдачи заказов партнёра",
    "address": "Москва Большой Афанасьевский переулок 4",
    "lat": 55.745231,
    "lon": 37.597641
  },
  {
    "platform_station_id": "019b55dfb10e753f98f4bbc817f1bc6f",
    "name": "Пункт выдачи заказов партнёра",
    "address": "Москва улица Усачёва 11Ж",
    "lat": 55.727047,
    "lon": 37.570515
  },
  {
    "platform_station_id": "ce90bff8-249c-4457-9513-d5e995ddb701",
    "name": "Пункт выдачи заказов партнёра",
    "address": "Москва улица Спиридоновка 13 стр3",
    "lat": 55.760746002197266,
    "lon": 37.59300231933594
  },
  {
    "platform_station_id": "0193e326ab89758aa09bbd201a0bd31a",
    "name": "Пункт выдачи заказов партнёра",
    "address": "Москва улица Новый Арбат 28",
    "lat": 55.753021,
    "lon": 37.584814
  },
  {
    "platform_station_id": "019a96c6e0a171f7b3687891ce0ac6e8",
    "name": "Пункт выдачи заказов партнёра",
    "address": "Москва Филипповский переулок 9",
    "lat": 55.748717,
    "lon": 37.597955
  },
  {
    "platform_station_id": "67d22b3d-8062-4d97-be6e-4fa1918730ba",
    "name": "Пункт выдачи заказов партнёра",
    "address": "Москва Льва Толстого 16",
    "lat": 55.73397064208984,
    "lon": 37.58709335327149
  },
  {
    "platform_station_id": "f9d81151-542e-4b92-abee-97d5a2f6f6d1",
    "name": "Пункт выдачи заказов партнёра",
    "address": "Москва улица Вертолётчиков 9",
    "lat": 55.702415466308594,
    "lon": 37.940425872802734
  },
  {
    "platform_station_id": "e08857c7-5bc3-4b5f-aff0-0af42a11333a",
    "name": "Пункт выдачи заказов Яндекс Маркета",
    "address": "Москва Новая площадь 3/4",
    "lat": 55.756954193115234,
    "lon": 37.63014602661133
  },
  {
    "platform_station_id": "019b087e3859754e80fb0b3c5bddcbc0",
    "name": "Пункт выдачи заказов партнёра",
    "address": "Москва Каланчёвская улица 31 стр6",
    "lat": 55.775358,
    "lon": 37.648152
  },
  {
    "platform_station_id": "0199804d929176d9b732b7fbabfacfa9",
    "name": "Пункт выдачи заказов партнёра",
    "address": "Москва улица Пречистенка 29",
    "lat": 55.740269,
    "lon": 37.591075
  },
  {
    "platform_station_id": "fdfde1f9-b8f4-4408-8f2c-3d2c7c398e30",
    "name": "Пункт выдачи заказов партнёра",
    "address": "Москва Новодмитровская улица 2 к3",
    "lat": 55.804664611816406,
    "lon": 37.591285705566406
  },
  {
    "platform_station_id": "019b087e385770a3b0e61074f26fcc97",
    "name": "Пункт выдачи заказов партнёра",
    "address": "Москва Большая Никитская улица 50 стр1",
    "lat": 55.758016,
    "lon": 37.590119
  },
  {
    "platform_station_id": "7b4615e4-1835-4f85-8987-861b426939fb",
    "name": "Пункт выдачи заказов партнёра",
    "address": "Москва улица Льва Толстого 16",
    "lat": 55.73397064208984,
    "lon": 37.58709335327149
  },
  {
    "platform_station_id": "4374fb29-c6e5-4fca-9277-166961255937",
    "name": "Пункт выдачи заказов партнёра",
    "address": "Москва Пятницкая улица 69",
    "lat": 55.73178482055664,
    "lon": 37.628177642822266
  },
  {
    "platform_station_id": "91d1a9b0-4e6f-4b6d-9ee3-e6ecc082e614",
    "name": "Постамат Яндекс.Маркет",
    "address": "Москва Льва Толстого 18Б",
    "lat": 55.73515319824219,
    "lon": 37.58550262451172
  },
  {
    "platform_station_id": "019c2ebf650075b18bce2424e9b064c6",
    "name": "Пункт выдачи заказов Яндекс Маркета",
    "address": "Москва Утренняя улица 8А",
    "lat": 55.746188,
    "lon": 37.790074
  },
  {
    "platform_station_id": "019397e717fd7548aa297c9040072675",
    "name": "Пункт выдачи заказов партнёра",
    "address": "Москва улица Строителей 10/9",
    "lat": 55.689172,
    "lon": 37.531923
  },
  {
    "platform_station_id": "019373a0e8af755a8b020c8decb2ace1",
    "name": "Пункт выдачи заказов партнёра",
    "address": "Москва 4-й Добрынинский переулок 1/9 стр22А",
    "lat": 55.724722,
    "lon": 37.618409
  },
  {
    "platform_station_id": "019c32ee5bb8768c929d583d68adcdc2",
    "name": "Пункт выдачи заказов Яндекс Маркета",
    "address": "Москва Шелепихинская набережная 14",
    "lat": 55.753583,
    "lon": 37.520464
  },
  {
    "platform_station_id": "019c3374bf187276bedb048cb8058c14",
    "name": "Пункт выдачи заказов Яндекс Маркета",
    "address": "Москва Поварская улица 26",
    "lat": 55.755155,
    "lon": 37.593736
  },
  {
    "platform_station_id": "b27d7ff4-43fc-4c0c-81b5-f5dc7950f359",
    "name": "Пункт выдачи заказов партнёра",
    "address": "Москва Льва Толстого 16",
    "lat": 55.73397064208984,
    "lon": 37.58709335327149
  },
  {
    "platform_station_id": "4d68a410-bdc3-493e-b889-ad1d01442082",
    "name": "Пункт выдачи заказов партнёра",
    "address": "Москва Тверская улица 1",
    "lat": 55.99358367919922,
    "lon": 37.17052459716797
  },
  {
    "platform_station_id": "019373a0e8797607a62c5a52d46dc891",
    "name": "Пункт выдачи заказов Яндекс Маркета",
    "address": "Москва Верхний Предтеченский переулок 11А стр5",
    "lat": 55.757503,
    "lon": 37.570687
  },
  {
    "platform_station_id": "019c25169d4074998d24fde7d5fb0695",
    "name": "Пункт выдачи заказов Яндекс Маркета",
    "address": "Москва улица Василисы Кожиной вл25/1",
    "lat": 55.733953,
    "lon": 37.49232
  },
  {
    "platform_station_id": "8e932c62-9a10-4bac-bf59-9c278b85f8e9",
    "name": "Постамат Яндекс.Маркет",
    "address": "Москва  ",
    "lat": 55.75132369995117,
    "lon": 37.617591857910156
  },
  {
    "platform_station_id": "5a6879c2-7910-44c1-a134-3de32d35e10c",
    "name": "Постамат Яндекс.Маркет",
    "address": "Москва Новинский бульвар 8",
    "lat": 55.75130844116211,
    "lon": 37.58462142944336
  },
  {
    "platform_station_id": "0193de004edb7622a9a102cefd948843",
    "name": "Пункт выдачи заказов Яндекс Маркета",
    "address": "Москва Тверская улица 13",
    "lat": 55.760878,
    "lon": 37.608549
  },
  {
    "platform_station_id": "019373a0e92271f5bfcd9072fa2d03bc",
    "name": "Пункт выдачи заказов партнёра",
    "address": "Москва Шелапутинский переулок 3 стр4",
    "lat": 55.748354,
    "lon": 37.663727
  },
  {
    "platform_station_id": "7b653f7e-30ae-40be-b9b1-0c9df46dae7d",
    "name": "Пункт выдачи заказов партнёра",
    "address": "Москва Кутузовский проспект 7/4 к5",
    "lat": 55.74742889404297,
    "lon": 37.56355285644531
  },
  {
    "platform_station_id": "fbbef9db-8243-452f-b096-3f9f869b3fe6",
    "name": "Пункт выдачи заказов Яндекс Маркета",
    "address": "Москва Сосинский проезд 8",
    "lat": 55.72819519042969,
    "lon": 37.674678802490234
  },
  {
    "platform_station_id": "71ebbce7-fe22-4663-8cb1-5c2ef1b27fd4",
    "name": "Пункт выдачи заказов Яндекс Маркета",
    "address": "Москва Зоологическая улица 17",
    "lat": 55.76703643798828,
    "lon": 37.58647918701172
  },
  {
    "platform_station_id": "7b48f995-090b-4daa-8695-4de2b42e8345",
    "name": "ПВЗ Беру",
    "address": "Москва Коломенский проезд 14 к1 стр2",
    "lat": 55.665016174316406,
    "lon": 37.6509895324707
  },
  {
    "platform_station_id": "01946f4f013c7337874ec2fb848a58a4",
    "name": "Пункт выдачи заказов Яндекс Маркета",
    "address": "Москва Ленинградский проспект 37 к9",
    "lat": 55.790449,
    "lon": 37.546654
  },
  {
    "platform_station_id": "019373a0ecad77c5b92f8186602ff4f3",
    "name": "Пункт выдачи заказов Яндекс Маркета",
    "address": "Москва Кутузовский проспект 3 стр2",
    "lat": 55.75,
    "lon": 37.57
  },
  {
    "platform_station_id": "dc44621d-4793-4f92-ba7d-afe9ae6b5c13",
    "name": "Пункт выдачи заказов Яндекс Маркета",
    "address": "Московский Георгиевская улица 9",
    "lat": 55.59043884277344,
    "lon": 37.378116607666016
  },
  {
    "platform_station_id": "2327d4a1-f9b3-4144-8044-78e83dffb2f6",
    "name": "Пункт выдачи заказов Яндекс Маркета",
    "address": "Москва Большой Лёвшинский переулок 19",
    "lat": 55.74607849121094,
    "lon": 37.63935089111328
  },
  {
    "platform_station_id": "6441753f-c2a0-4169-a9de-5240a4d40c1c",
    "name": "Пункт выдачи заказов партнёра",
    "address": "Москва Смоленская набережная 14",
    "lat": 55.74773025512695,
    "lon": 37.576778411865234
  },
  {
    "platform_station_id": "0193da59d4f57710a4410d3c32e30ab5",
    "name": "Пункт выдачи заказов Яндекс Маркета",
    "address": "Москва улица Плющиха 42",
    "lat": 55.741724,
    "lon": 37.576554
  },
  {
    "platform_station_id": "0198a4262e2c70fc93084e064ff05b58",
    "name": "Пункт выдачи заказов Яндекс Маркета",
    "address": "Москва Красная площадь 3",
    "lat": 55.75477,
    "lon": 37.622081
  },
  {
    "platform_station_id": "ccfc2c38-c68f-4923-a056-db4f0f572083",
    "name": "Пункт выдачи заказов Яндекс Маркета",
    "address": "Московский Солнечная улица 1",
    "lat": 55.59247970581055,
    "lon": 37.364158630371094
  },
  {
    "platform_station_id": "1f044ec3-3751-4ac0-ac3e-815f6a9ee163",
    "name": "Пункт выдачи заказов Яндекс.Маркета",
    "address": "Москва Сторожевая улица 24Б к2",
    "lat": 55.76413345336914,
    "lon": 37.71385192871094
  },
  {
    "platform_station_id": "019397af80ba71059ff176efc27495b6",
    "name": "Пункт выдачи заказов Яндекс Маркета",
    "address": "Москва улица Строителей 10/9",
    "lat": 55.689399,
    "lon": 37.531548
  },
  {
    "platform_station_id": "8897d8d1-a1c9-459a-826e-c1acdf8cd086",
    "name": "Пункт выдачи заказов Яндекс Маркета",
    "address": "Москва Манежная улица 9 стр4",
    "lat": 55.75154876708984,
    "lon": 37.61085510253906
  },
  {
    "platform_station_id": "6c4f99dd-7f2c-4ced-9fb1-ec11fddb4f58",
    "name": "Пункт выдачи заказов партнёра",
    "address": "Москва улица Малая Дмитровка 16 стр5",
    "lat": 55.77028274536133,
    "lon": 37.605621337890625
  },
  {
    "platform_station_id": "cd3d7f51-642f-492c-8c69-a3c9fe986ff2",
    "name": "Пункт выдачи заказов партнёра",
    "address": "Москва Береговой проезд 5 к2",
    "lat": 55.67168426513672,
    "lon": 37.59735107421875
  },
  {
    "platform_station_id": "131df443-f4bd-406d-958b-3524afaa4ec2",
    "name": "Пункт выдачи заказов Яндекс Маркета",
    "address": "Москва Новолесная улица 7/11",
    "lat": 55.78278350830078,
    "lon": 37.59000015258789
  },
  {
    "platform_station_id": "bc6c746e-e97e-4907-aca5-f6e3a4cdf2b4",
    "name": "Лучше чем МП",
    "address": "Москва 2-й Карачаровский проезд 1",
    "lat": 55.730167388916016,
    "lon": 37.75224685668945
  },
  {
    "platform_station_id": "0eb2a31e-b3bd-4ca3-9b9c-233d19f5a546",
    "name": "Пункт выдачи заказов партнёра",
    "address": "Москва Кутузовский проспект 9 к1",
    "lat": 55.7485237121582,
    "lon": 37.56106185913086
  },
  {
    "platform_station_id": "96dd9dfc-d384-4b69-969c-97d08e425d3a",
    "name": "Пункт выдачи заказов партнёра",
    "address": "Москва Шарикоподшипниковская улица 22",
    "lat": 55.71820831298828,
    "lon": 37.672855377197266
  },
  {
    "platform_station_id": "bb7e3aef-f6cd-41d2-9e9e-e6e8a6b4bd08",
    "name": "Пункт выдачи заказов Яндекс Маркета",
    "address": "Москва улица Новый Арбат 23",
    "lat": 55.75202941894531,
    "lon": 37.581539154052734
  }
]
